<?xml version='1.0' encoding='utf-8'?>
<kml xmlns="http://www.opengis.net/kml/2.2"><Document><name>Ruta de Los Gigantes y Masca</name><Placemark><name>Puerto de Los Gigantes, Santiago del Teide</name><description>Inicio de la ruta</description><Point><coordinates>-16.840000,28.240000,10.00</coordinates></Point></Placemark><Placemark><name>Recorrido</name><LineString><coordinates>-16.840000,28.240000,10.00
-16.845000,28.245000,150.00
-16.838000,28.255000,650.00
-16.840000,28.258000,700.00
-16.842000,28.260000,200.00</coordinates></LineString></Placemark><Placemark><name>Puerto de Los Gigantes</name><description>Punto de partida con vistas a los impresionantes acantilados. Puerto deportivo con restaurantes y tiendas.</description><Point><coordinates>-16.840000,28.240000,10.00</coordinates></Point></Placemark><Placemark><name>Mirador de Los Gigantes</name><description>Mirador con vistas panorámicas de los acantilados y el océano Atlántico.</description><Point><coordinates>-16.845000,28.245000,150.00</coordinates></Point></Placemark><Placemark><name>Pueblo de Masca</name><description>Pequeño pueblo rural de montaña, considerado uno de los más bonitos de España, con casas tradicionales canarias.</description><Point><coordinates>-16.838000,28.255000,650.00</coordinates></Point></Placemark><Placemark><name>Mirador de Masca</name><description>Espectacular mirador con vistas del barranco de Masca y el mar.</description><Point><coordinates>-16.840000,28.258000,700.00</coordinates></Point></Placemark><Placemark><name>Barranco de Masca</name><description>Impresionante barranco tallado por la erosión, con paredes verticales y vegetación autóctona. Ruta de descenso hasta la playa.</description><Point><coordinates>-16.842000,28.260000,200.00</coordinates></Point></Placemark></Document></kml>