<?xml version='1.0' encoding='utf-8'?>
<kml xmlns="http://www.opengis.net/kml/2.2"><Document><name>Ruta de La Laguna y Anaga</name><Placemark><name>Plaza del Adelantado, La Laguna</name><description>Inicio de la ruta</description><Point><coordinates>-16.314000,28.487000,546.00</coordinates></Point></Placemark><Placemark><name>Recorrido</name><LineString><coordinates>-16.314000,28.487000,546.00
-16.313000,28.489000,550.00
-16.315000,28.491000,548.00
-16.290000,28.540000,800.00
-16.275000,28.550000,920.00</coordinates></LineString></Placemark><Placemark><name>Plaza del Adelantado</name><description>Corazón de La Laguna, con su emblemática fuente y rodeada de edificios históricos como el Ayuntamiento.</description><Point><coordinates>-16.314000,28.487000,546.00</coordinates></Point></Placemark><Placemark><name>Catedral de La Laguna</name><description>Catedral de Nuestra Señora de los Remedios, de estilo neogótico con fachada de piedra volcánica.</description><Point><coordinates>-16.313000,28.489000,550.00</coordinates></Point></Placemark><Placemark><name>Monasterio de Santa Catalina</name><description>Antiguo convento del siglo XVII, actual sede del Instituto de Estudios Canarios.</description><Point><coordinates>-16.315000,28.491000,548.00</coordinates></Point></Placemark><Placemark><name>Parque Rural de Anaga - Sendero de los Sentidos</name><description>Recorrido sensorial por el bosque de laurisilva, con paneles informativos y miradores.</description><Point><coordinates>-16.290000,28.540000,800.00</coordinates></Point></Placemark><Placemark><name>Mirador de La Cruz del Carmen</name><description>Mirador con vistas panorámicas del macizo de Anaga y la costa norte de Tenerife.</description><Point><coordinates>-16.275000,28.550000,920.00</coordinates></Point></Placemark></Document></kml>